[
  {
    "storeName": "Tentree",
    "image": "tentree.png",
    "link": "https://tentree.com/collections/womens-best-sellers",
    "category": [
      "Basics",
      "Loungewear",
      "Outerwear",
      "Bags",
      "Accessories"
    ],
    "for": [
      "Women",
      "Men",
      "Children"
    ],
    "from": "Vancouver, Canada",
    "address": {
      "street": "YVR Airport Canada Line Station, Grant McConachie Wy B14",
      "city": "Richmond",
      "province": "British Columbia",
      "postalCode": "V7B 0A4",
      "country": "Canada"
    },
    "lat": 49.1968,
    "lng": -123.1812,
    "values": [
      "Organic",
      "B Corp",
      "Recycled",
      "Vegan",
      "Give Back"
    ],
    "priceRange": "$30-$120"
  },
  {
    "storeName": "Kotn",
    "image": "kotn.webp",
    "link": "https://kotn.com/collections/womens-new",
    "category": [
      "Basics",
      "Knitwear",
      "Loungewear",
      "Bags",
      "Accessories"
    ],
    "for": [
      "Women",
      "Men"
    ],
    "from": "Toronto, Canada",
    "address": {
      "street": "2064 W 4th Ave",
      "city": "Vancouver",
      "province": "British Columbia",
      "postalCode": "V6J 1M9",
      "country": "Canada"
    },
    "lat": 49.2680,
    "lng": -123.1464,
    "values": [
      "Organic",
      "B Corp",
      "Give Back"
    ],
    "priceRange": "$30-$80"
  },
  {
    "storeName": "Encircled",
    "image": "encircled.jpg",
    "link": "https://www.encircled.co/",
    "category": [
      "Basics",
      "Dresses",
      "Loungewear",
      "Knitwear",
      "Outerwear",
      "Sportswear",
      "Accessories"
    ],
    "for": [
      "Women"
    ],
    "from": "Toronto, Canada",
    "address": {
      "street": "201-300 Campbell Ave",
      "city": "Toronto",
      "province": "Ontario",
      "postalCode": "M6P 3V6",
      "country": "Canada"
    },
    "lat": 43.6649,
    "lng": -79.4621,
    "values": [
      "Organic",
      "Recycled",
      "B Corp",
      "Made in Canada"
    ],
    "priceRange": "$70-$290"
  },
  {
    "storeName": "Matt And Nat",
    "image": "matt-natt.webp",
    "link": "https://mattandnat.com/",
    "category": [
      "Basics",
      "Outerwear",
      "Knitwear",
      "Shoes",
      "Bags",
      "Accessories"
    ],
    "for": [
      "Women",
      "Men"
    ],
    "from": "Montreal, Canada",
    "address": {
      "street": "25 The West Mall",
      "city": "Etobicoke",
      "province": "Ontario",
      "postalCode": "M9C 1B8",
      "country": "Canada"
    },
    "lat": 43.6412,
    "lng": -79.5668,
    "values": [
      "Natural",
      "Vegan",
      "Recycled",
      "Inclusive"
    ],
    "priceRange": "$90-$110"
  },
  {
    "storeName": "Nomads Hempwear",
    "image": "nomads.jpg",
    "link": "https://nomadshempwear.com/",
    "category": [
      "Basics",
      "Dresses",
      "Loungewear",
      "Knitwear",
      "Outerwear",
      "Shoes",
      "Accessories",
      "Jewelry"
    ],
    "for": [
      "Women",
      "Men"
    ],
    "from": "British Columbia, Canada",
    "address": {
      "street": "6998 Winlaw Bridge Rd",
      "city": "Winlaw",
      "province": "British Columbia",
      "postalCode": "V0G 2J0",
      "country": "Canada"
    },
    "lat": 49.5849,
    "lng": -117.5527,
    "values": [
      "Organic",
      "Recycled"
    ],
    "priceRange": "$40-$100"
  },
  {
    "storeName": "Londre Bodywear",
    "image": "londre.webp",
    "link": "https://londrebodywear.com/",
    "category": [
      "Basics",
      "Swimwear",
      "Loungewear",
      "Underwear",
      "Accessories"
    ],
    "for": [
      "Women"
    ],
    "from": "Vancouver, Canada",
    "address": {
      "street": "595 Howe St",
      "city": "Vancouver",
      "province": "British Columbia",
      "postalCode": "V6C 2T5",
      "country": "Canada"
    },
    "lat": 49.2856,
    "lng": -123.1168,
    "values": [
      "Recycled",
      "Give Back"
    ],
    "priceRange": "$30-$180"
  },
  {
    "storeName": "The Good Tee",
    "image": "the-good-tee.png",
    "link": "https://www.thegoodtee.com/",
    "category": [
      "Basics",
      "Accessories"
    ],
    "for": [
      "Women",
      "Men",
      "Children"
    ],
    "from": "Toronto, Canada",
    "address": {
      "street": "227 Abbott St",
      "city": "Vancouver",
      "province": "British Columbia",
      "postalCode": "V6B 2K7",
      "country": "Canada"
    },
    "lat": 49.2824,
    "lng": -123.1051,
    "values": [
      "Organic",
      "Fair Trade",
      "B Corp"
    ],
    "priceRange": "$20-$35"
  },
  {
    "storeName": "Parade Organics",
    "image": "parade.jpeg",
    "link": "https://paradebaby.com/",
    "category": [
      "Basics",
      "Dresses",
      "Loungewear",
      "Maternity",
      "Sleepwear",
      "Accessories",
      "Toys"
    ],
    "for": [
      "Babies",
      "Toddlers"
    ],
    "from": "Vancouver, Canada",
    "address": {
      "street": "1666 Johnston St Unit #150",
      "city": "Vancouver",
      "province": "British Columbia",
      "postalCode": "V6H 3R5",
      "country": "Canada"
    },
    "lat": 49.2718,
    "lng": -123.1357,
    "values": [
      "Organic",
      "Fair Trade"
    ],
    "priceRange": "$15-$50"
  }
]